Country Name,Country Code,country_name,capital,government_type,currency,total_area,location,language,gdp_growth,gdp_per_capita,original_country_name,latitude,longitude,alpha-3_x,alpha-2_x,alpha-3_y,alpha-2_y
Aruba,ABW,Aruba,Oranjestad,parliamentary democracy; part of the Kingdom of the Netherlands,Aruban guilders/florins,69 Square Miles 180 Square Kilometers,"The Caribbean, an island in the Caribbean Sea, north of Venezuela","Dutch (official), Papiamento (a Spanish, Portuguese, Dutch, English dialect), English (widely spoken), Spanish",2.4%,"$25,300.00 (USD)",Aruba,12.52,-70.03,ABW,AW,ABW,AW
Afghanistan,AFG,Afghanistan,Kabul,theocratic; the United States does not recognize the Taliban Government,Afghan Afghani (AFN),"251,826 Square Miles 652,230 Square Kilometers","Southern Asia, north and west of Pakistan, east of Iran","Pashtu (official) 35%, Afghan Persian (Dari) 50%, Turkic languages (primarily Uzbek and Turkmen) 11%, 30 minor languages (primarily Balochi and Pashai) 4%, much bilingualism",-20.74%,"$1,500.00 (USD)",Afghanistan,34.52,69.18,AFG,AF,AFG,AF
Angola,AGO,Angola,Luanda,presidential republic,Angola Kwanza (AOA),"481,351 Square Miles 1,246,700 Square Kilometers","Southern Africa, bordering the South Atlantic Ocean, between Namibia and the Democratic Republic of the Congo","Portuguese (official), Bantu and other African languages",,"$6,800.00 (USD)",Angola,-8.83,13.22,AGO,AO,AGO,AO
Albania,ALB,Albania,Tirana,parliamentary republic,leke (ALL),"11,100 Square Miles 28,748 Square Kilometers","Southeastern Europe, bordering the Adriatic Sea and the Ionian Sea, between Greece in the south and Montenegro and Kosovo to the north","Albanian (official - Tosk is the official dialect), Greek",3.8%,"$12,500.00 (USD)",Albania,41.32,19.82,ALB,AL,ALB,AL
Andorra,AND,Andorra,Andorra la Vella,"parliamentary democracy (since March 1993) that retains its chiefs of state in the form of a co-principality; the two princes are the President of France and Bishop of Seu d'Urgell, Spain",Euro (EUR),181 Square Miles 468 Square Kilometers,"Southwestern Europe, Pyrenees mountains, on the border between France and Spain","Catalan (official), French, Castilian, Portuguese",-1.6%,"$37,200.00 (USD)",Andorra,42.5,1.52,AND,AD,AND,AD
United Arab Emirates,ARE,UnitedArabEmirates,Abu Dhabi,federation of monarchies,UAE Dirham (AED),"32,278 Square Miles 83,600 Square Kilometers","Middle East, bordering the Gulf of Oman and the Persian Gulf, between Oman and Saudi Arabia","Arabic (official), Persian, English, Hindi, Urdu",3%,"$67,000.00 (USD)",United Arab Emirates,24.47,54.37,ARE,AE,ARE,AE
Argentina,ARG,Argentina,Buenos Aires,presidential republic,Argentine Peso (ARS),"1,073,512 Square Miles 2,780,400 Square Kilometers","Southern South America, bordering the South Atlantic Ocean, between Chile and Uruguay","Spanish (official), Italian, English, German, French, indigenous (Mapudungun, Quechua)",-1.8%,"$20,200.00 (USD)",Argentina,-34.58,-58.67,ARG,AR,ARG,AR
Armenia,ARM,Armenia,Yerevan,parliamentary democracy; note - constitutional changes adopted in December 2015 transformed the government to a parliamentary system,Armenian Dram (AMD),"11,484 Square Miles 29,743 Square Kilometers","Southwestern Asia, between Turkey (to the west) and Azerbaijan","Armenian 96%, Russian 2%, other 2%",3.2%,"$8,900.00 (USD)",Armenia,40.17,44.5,ARM,AM,ARM,AM
American Samoa,ASM,AmericanSamoa,Pago Pago,"unincorporated, unorganized Territory of the US with local self-government; republican form of territorial government with separate executive, legislative, and judicial branches",US Dollar (USD),77 Square Miles 199 Square Kilometers,"Oceania, a group of islands in the South Pacific Ocean, about halfway between Hawaii and New Zealand","Samoan (closely related to Hawaiian and other Polynesian languages), English",-2.4%,"$13,000.00 (USD)",American Samoa,-14.27,-170.7,ASM,AS,ASM,AS
Antigua and Barbuda,ATG,AntiguaandBarbuda,Saint John's,parliamentary democracy under a constitutional monarchy; a Commonwealth realm,East Caribbean dollars (XCD),171 Square Miles 442 Square Kilometers,"The Caribbean, islands between the Caribbean Sea and the North Atlantic Ocean, east-southeast of Puerto Rico","English (official), local dialects",2%,"$24,100.00 (USD)",Antigua and Barbuda,17.12,-61.85,ATG,AG,ATG,AG
Australia,AUS,Australia,Canberra,federal parliamentary democracy under a constitutional monarchy; a Commonwealth realm,Australian Dollar (AUD),"2,988,885 Square Miles 7,741,220 Square Kilometers","Oceania, the continent between the Indian Ocean and the South Pacific Ocean","English, native languages",2.9%,"$48,800.00 (USD)",Australia,-35.27,149.13,AUS,AU,AUS,AU
Austria,AUT,Austria,Vienna,federal parliamentary republic,Euro (EUR),"32,383 Square Miles 83,871 Square Kilometers","Central Europe, north of Italy and Slovenia","German (official nationwide), Slovene (official in Carinthia), Croatian (official in Burgenland), Hungarian (official in Burgenland)",1.4%,"$47,900.00 (USD)",Austria,48.2,16.37,AUT,AT,AUT,AT
Azerbaijan,AZE,Azerbaijan,Baku,presidential republic,Azerbaijani manats (AZN),"33,436 Square Miles 86,600 Square Kilometers","Southwestern Asia, bordering the Caspian Sea, between Iran and Russia, with a small European portion north of the Caucasus range","Azerbaijani (Azeri) 89%, Russian 3%, Armenian 2%, other 6%",-2.4%,"$17,700.00 (USD)",Azerbaijan,40.38,49.87,AZE,AZ,AZE,AZ
Burundi,BDI,Burundi,Gitega,presidential republic,Burundi francs (BIF),"10,745 Square Miles 27,830 Square Kilometers","Central Africa, east of the Democratic Republic of the Congo","Kirundi (official), French (official), Swahili (along Lake Tanganyika and in the Bujumbura area)",-0.5%,$800.00 (USD),Burundi,-3.43,29.93,BDI,BI,BDI,BI
Belgium,BEL,Belgium,Brussels,federal parliamentary democracy under a constitutional monarchy,Euro (EUR),"11,787 Square Miles 30,528 Square Kilometers","Western Europe, bordering the North Sea, between France and the Netherlands","Dutch (official) 60%, French (official) 40%, German (official) less than 1%, legally bilingual (Dutch and French)",1.4%,"$44,900.00 (USD)",Belgium,50.83,4.33,BEL,BE,BEL,BE
Benin,BEN,Benin,Porto-Novo,presidential republic,Communaute Financiere Africaine francs (XOF),"43,483 Square Miles 112,622 Square Kilometers","Western Africa, bordering the Bight of Benin, between Nigeria and Togo","French (official), Fon and Yoruba (most common vernaculars in the south), tribal languages (at least six major ones in the north)",4.6%,"$2,200.00 (USD)",Benin,6.48,2.62,BEN,BJ,BEN,BJ
Burkina Faso,BFA,BurkinaFaso,Ouagadougou,presidential republic,Communaute Financiere Africaine francs (XOF),"105,869 Square Miles 274,200 Square Kilometers","Western Africa, north of Ghana","French (official), native African languages belonging to the Sudanic family spoken by 90% of the population",5.2%,"$1,800.00 (USD)",Burkina Faso,12.37,-1.52,BFA,BF,BFA,BF
Bangladesh,BGD,Bangladesh,Dhaka,parliamentary republic,Bangladeshi Taka (BDT),"55,598 Square Miles 143,998 Square Kilometers","Southern Asia, bordering the Bay of Bengal, between Burma and India","Bangla (official, also known as Bengali), English",6.9%,"$3,900.00 (USD)",Bangladesh,23.72,90.4,BGD,BD,BGD,BD
Bulgaria,BGR,Bulgaria,Sofia,parliamentary republic,Bulgarian Lev (BGN),"42,810 Square Miles 110,879 Square Kilometers","Southeastern Europe, bordering the Black Sea, between Romania and Turkey",Bulgarian,3%,"$20,100.00 (USD)",Bulgaria,42.68,23.32,BGR,BG,BGR,BG
Bahrain,BHR,Bahrain,Manama,constitutional monarchy,Bahraini dinars (BHD),293 Square Miles 760 Square Kilometers,"The Middle East, an archipelago in the Persian Gulf, east of Saudi Arabia","Arabic, English, Farsi, Urdu",2.1%,"$50,300.00 (USD)",Bahrain,26.23,50.57,BHR,BH,BHR,BH
"Bahamas, The",BHS,TheBahamas,Nassau,parliamentary democracy under a constitutional monarchy; a Commonwealth realm,Bahamian dollars (BSD),"5,359 Square Miles 13,880 Square Kilometers","Chain of islands in the North Atlantic Ocean, southeast of Florida, northeast of Cuba","English (official), Creole (among Haitian immigrants)",0.3%,"$24,600.00 (USD)","Bahamas, The",25.08,-77.35,BHS,BS,BHS,BS
Bosnia and Herzegovina,BIH,BosniaandHerzegovina,Sarajevo,parliamentary republic,Konvertibilna markas (BAM),"19,767 Square Miles 51,197 Square Kilometers","Southeastern Europe, bordering the Adriatic Sea and Croatia","Bosnian, Croatian, Serbian",3%,"$11,000.00 (USD)",Bosnia and Herzegovina,43.87,18.42,BIH,BA,BIH,BA
Belarus,BLR,Belarus,Minsk,"presidential republic in name, although in fact a dictatorship",Belarusian Rubles (BYB/BYR),"80,154 Square Miles 207,600 Square Kilometers","Eastern Europe, east of Poland","Belarusian, Russian, other",-3%,"$17,500.00 (USD)",Belarus,53.9,27.57,BLR,BY,BLR,BY
Belize,BLZ,Belize,Belmopan,parliamentary democracy (National Assembly) under a constitutional monarchy; a Commonwealth realm,Belizean dollars (BZD),"8,867 Square Miles 22,966 Square Kilometers","Central America, bordering the Caribbean Sea, between Guatemala and Mexico","English (official), Spanish, Mayan, Garifuna (Carib), Creole",,"$8,200.00 (USD)",Belize,17.25,-88.77,BLZ,BZ,BLZ,BZ
Bermuda,BMU,Bermuda,Hamilton,Overseas Territory of the UK with limited self-government; parliamentary democracy,Bermudian Dollar (BMD),21 Square Miles 54 Square Kilometers,"North America, a group of islands in the North Atlantic Ocean, east of South Carolina (US)","English (official), Portuguese",-2.5%,"$85,700.00 (USD)",Bermuda,32.28,-64.78,BMU,BM,BMU,BM
Bolivia,BOL,Bolivia,Sucre,presidential republic,Bolivianos (BOB),"424,162 Square Miles 1,098,581 Square Kilometers","Central South America, southwest of Brazil","Spanish (official), Quechua (official), Aymara (official)",3.7%,"$7,200.00 (USD)",Bolivia,-19.02,-65.26,BOL,BO,BOL,BO
Brazil,BRA,Brazil,Brasília,federal presidential republic,Brazilian Real (BRL),"3,287,594 Square Miles 8,514,877 Square Kilometers","Eastern South America, bordering the Atlantic Ocean",Portuguese (official and most widely spoken language),-3.3%,"$15,200.00 (USD)",Brazil,-15.79,-47.88,BRA,BR,BRA,BR
Barbados,BRB,Barbados,Bridgetown,parliamentary republic; a Commonwealth realm,Barbadian dollars (BBD),166 Square Miles 430 Square Kilometers,"The Caribbean, an island in the North Atlantic Ocean, northeast of Venezuela",English,1.7%,"$17,200.00 (USD)",Barbados,13.1,-59.62,BRB,BB,BRB,BB
Brunei Darussalam,BRN,Brunei,Bandar Seri Begawan,absolute monarchy or sultanate,Bruneian dollars (BND),"2,226 Square Miles 5,765 Square Kilometers","Southeastern Asia, bordering the South China Sea and Malaysia","Malay (official), English, Chinese",0.4%,"$79,700.00 (USD)",Brunei Darussalam,4.88,114.93,BRN,BN,BRN,BN
Bhutan,BTN,Bhutan,Thimphu,constitutional monarchy,Bhutanese Ngultrum (BTN),"14,824 Square Miles 38,394 Square Kilometers","Southern Asia, between China and India","Dzongkha (official), Bhotes speak various Tibetan dialects, Nepalese speak various Nepalese dialects",6%,"$8,100.00 (USD)",Bhutan,27.47,89.63,BTN,BT,BTN,BT
Botswana,BWA,Botswana,Gaborone,parliamentary republic,Pula (BWP),"224,606 Square Miles 581,730 Square Kilometers","Southern Africa, north of South Africa","English (official), Setswana",3.1%,"$16,900.00 (USD)",Botswana,-24.63,25.9,BWA,BW,BWA,BW
Central African Republic,CAF,CentralAfricanRepublic,Bangui,presidential republic,Cooperation Financiere en Afrique Centrale francs (XAF),"240,534 Square Miles 622,984 Square Kilometers","Central Africa, north of the Democratic Republic of the Congo","French (official), Sangho (lingua franca and national language), tribal languages",5.2%,$700.00 (USD),Central African Republic,4.37,18.58,CAF,CF,CAF,CF
Canada,CAN,Canada,Ottawa,federal parliamentary democracy (Parliament of Canada) under a constitutional monarchy; a Commonwealth realm; federal and state authorities and responsibilities regulated in constitution,Canadian dollars (CAD),"3,855,081 Square Miles 9,984,670 Square Kilometers","Northern North America, bordering the North Atlantic Ocean on the east, North Pacific Ocean on the west, and the Arctic Ocean on the north, north of the conterminous US","English (official) 58.8%, French (official) 21.6%, other 19.6%",1.2%,"$46,200.00 (USD)",Canada,45.42,-75.7,CAN,CA,CAN,CA
Switzerland,CHE,Switzerland,Bern,federal republic (formally a confederation),Swiss Franc (CHF),"15,937 Square Miles 41,277 Square Kilometers","Central Europe, east of France, north of Italy","German (official) 63.7%, French (official) 19.2%, Italian (official) 7.6%, Romansch (official) 0.6%, other 8.9%",1%,"$59,300.00 (USD)",Switzerland,46.92,7.47,CHE,CH,CHE,CH
Chile,CHL,Chile,Santiago,presidential republic,Chilean pesos (CLP),"291,931 Square Miles 756,102 Square Kilometers","Southern South America, bordering the South Pacific Ocean, between Argentina and Peru","Spanish (official), Mapudungun, German, English",1.7%,"$24,000.00 (USD)",Chile,-33.45,-70.67,CHL,CL,CHL,CL
China,CHN,China,Beijing,communist party-led state,Renminbi yuan (RMB),"3,705,387 Square Miles 9,596,961 Square Kilometers","Eastern Asia, bordering the East China Sea, Korea Bay, Yellow Sea, and South China Sea, between North Korea and Vietnam","Standard Chinese or Mandarin (Putonghua, based on the Beijing dialect), Yue (Cantonese), Wu (Shanghainese), Minbei (Fuzhou), Minnan (Hokkien-Taiwanese), Xiang, Gan, Hakka dialects, minority languages",6.6%,"$15,400.00 (USD)",China,39.92,116.38,CHN,CN,CHN,CN
Cote d'Ivoire,CIV,CotedIvoire,Yamoussoukro,Presidential Republic,Communaute Financiere Africaine francs (XOF),"124,503 Square Miles 322,463 Square Kilometers","Western Africa, bordering the North Atlantic Ocean, between Ghana and Liberia","French (official), 60 native dialects with Dioula the most widely spoken",8%,"$3,600.00 (USD)",Cote d'Ivoire,6.82,-5.27,CIV,CI,CIV,CI
Cameroon,CMR,Cameroon,Yaoundé,presidential republic,Cooperation Financiere en Afrique Centrale francs (XAF),"183,567 Square Miles 475,440 Square Kilometers","Central Africa, bordering the Bight of Biafra, between Equatorial Guinea and Nigeria","24 major African language groups, English (official), French (official)",4.8%,"$3,300.00 (USD)",Cameroon,3.85,11.5,CMR,CM,CMR,CM
"Congo, Dem. Rep.",COD,DemocraticRepublicoftheCongo,Kinshasa,Semi-presidential republic,Congolese francs (CDF),"905,350 Square Miles 2,344,858 Square Kilometers","Central Africa, northeast of Angola","French (official), Lingala (a lingua franca trade language), Kingwana (a dialect of Kiswahili or Swahili), Kikongo, Tshiluba",3.9%,$800.00 (USD),"Congo, Dem. Rep.",-4.32,15.3,COD,CD,COD,CD
"Congo, Rep.",COG,RepublicOfTheCongo,Brazzaville,Presidential republic,Cooperation Financiere en Afrique Centrale francs (XAF),"132,046 Square Miles 342,000 Square Kilometers","Central Africa, bordering the South Atlantic Ocean, between Angola and Gabon","French (official), Lingala and Monokutuba (lingua franca trade languages), many local languages and dialects (of which Kikongo is the most widespread)",1.7%,"$6,800.00 (USD)","Congo, Rep.",-4.25,15.28,COG,CG,COG,CG
Colombia,COL,Colombia,Bogotá,presidential republic,Colombian pesos (COP),"439,733 Square Miles 1,138,910 Square Kilometers","Northern South America, bordering the Caribbean Sea, between Panama and Venezuela, and bordering the North Pacific Ocean, between Ecuador and Panama",Spanish (official),2.2%,"$14,200.00 (USD)",Colombia,4.71,-74.07,COL,CO,COL,CO
Comoros,COM,Comoros,Moroni,Federal Presidential Republic,Comoran francs (KMF),"863 Square Miles 2,235 Square Kilometers","Southern Africa, group of islands at the northern mouth of the Mozambique Channel, about two-thirds of the way between northern Madagascar and northern Mozambique","Arabic (official), French (official), Shikomoro (a blend of Swahili and Arabic)",2.2%,"$1,500.00 (USD)",Comoros,-11.7,43.23,COM,KM,COM,KM
Cabo Verde,CPV,CapeVerde,Praia,parliamentary republic,Cabo Verdean escudos (CVE),"1,557 Square Miles 4,033 Square Kilometers","Western Africa, a group of islands in the North Atlantic Ocean, west of Senegal","Portuguese, Crioulo (a blend of Portuguese and West African words)",3.6%,"$6,700.00 (USD)",Cabo Verde,14.92,-23.52,CPV,CV,CPV,CV
Costa Rica,CRI,CostaRica,San José,presidential republic,Costa Rican colones (CRC),"19,730 Square Miles 51,100 Square Kilometers","Central America, bordering both the Caribbean Sea and the North Pacific Ocean, between Nicaragua and Panama","Spanish (official), English",4.3%,"$16,100.00 (USD)",Costa Rica,9.93,-84.09,CRI,CR,CRI,CR
Cuba,CUB,Cuba,Havana,Communist state,Cuban pesos (CUP),"42,803 Square Miles 110,860 Square Kilometers","Caribbean, island between the Caribbean Sea and the North Atlantic Ocean, 150 km south of Key West, Florida",Spanish (official),1.3%,"$11,600.00 (USD)",Cuba,23.12,-82.35,CUB,CU,CUB,CU
Cayman Islands,CYM,CaymanIslands,George Town,parliamentary democracy; self-governing overseas territory of the UK,Caymanian dollars (KYD),102 Square Miles 264 Square Kilometers,"The Caribbean, three-island group (Grand Cayman, Cayman Brac, Little Cayman) in the Caribbean Sea, 240 km south of Cuba and 268 km northwest of Jamaica",English,1.7%,"$43,800.00 (USD)",Cayman Islands,19.3,-81.38,CYM,KY,CYM,KY
Cyprus,CYP,Cyprus,Nicosia,"Republic of Cyprus - presidential republic; self-declared ""Turkish Republic of Northern Cyprus"" (TRNC) - a parliamentary republic with an enhanced presidency",Greek Cypriot area:  euros (EUR); Turkish Cypriot area: Turkish new lira (YTL),"3,572 Square Miles 9,251 Square Kilometers","Middle East, island in the Mediterranean Sea, south of Turkey","Greek, Turkish, English",2.8%,"$34,400.00 (USD)",Cyprus,35.17,33.37,CYP,CY,CYP,CY
Czechia,CZE,CzechRepublic,Prague,parliamentary republic,koruny (CZK),"30,451 Square Miles 78,867 Square Kilometers","Central Europe, between Germany, Poland, Slovakia, and Austria",Czech,2.5%,"$33,200.00 (USD)",Czechia,50.08,14.47,CZE,CZ,CZE,CZ
Germany,DEU,Germany,Berlin,federal parliamentary republic,Euro (EUR),"137,846 Square Miles 357,022 Square Kilometers","Central Europe, bordering the Baltic Sea and the North Sea, between the Netherlands and Poland, south of Denmark",German,1.5%,"$47,400.00 (USD)",Germany,52.52,13.4,DEU,DE,DEU,DE
Djibouti,DJI,Djibouti,Djibouti,Presidential republic,Djiboutian francs (DJF),"8,958 Square Miles 23,200 Square Kilometers","Eastern Africa, bordering the Gulf of Aden and the Red Sea, between Eritrea and Somalia","French (official), Arabic (official), Somali, Afar",6.5%,"$3,400.00 (USD)",Djibouti,11.58,43.15,DJI,DJ,DJI,DJ
Dominica,DMA,Dominica,Roseau,Parliamentary Republic,East Caribbean dollars (XCD),290 Square Miles 751 Square Kilometers,"Caribbean, island between the Caribbean Sea and the North Atlantic Ocean, about half way between Puerto Rico and Trinidad and Tobago","English (official), French patois",1.5%,"$11,400.00 (USD)",Dominica,15.3,-61.4,DMA,DM,DMA,DM
Denmark,DNK,Denmark,Copenhagen,parliamentary constitutional monarchy,Danish kroner (DKK),"16,639 Square Miles 43,094 Square Kilometers","Northern Europe, bordering the Baltic Sea and the North Sea, on a peninsula north of Germany (Jutland); also includes several major islands (Sjaelland, Fyn, and Bornholm)","Danish, Faroese, Greenlandic (an Inuit dialect), German (small minority)",1%,"$46,600.00 (USD)",Denmark,55.67,12.58,DNK,DK,DNK,DK
Dominican Republic,DOM,DominicanRepublic,Santo Domingo,Presidential republic,Dominican pesos (DOP),"18,791 Square Miles 48,670 Square Kilometers","Caribbean, eastern two-thirds of the island of Hispaniola, between the Caribbean Sea and the North Atlantic Ocean, east of Haiti",Spanish,5.9%,"$15,900.00 (USD)",Dominican Republic,18.47,-69.9,DOM,DO,DOM,DO
Algeria,DZA,Algeria,Algiers,presidential republic,Algerian dinars (DZD),"919,590 Square Miles 2,381,741 Square Kilometers","Northern Africa, bordering the Mediterranean Sea, between Morocco and Tunisia","Arabic (official), French, Berber dialects",1.4%,"$15,200.00 (USD)",Algeria,36.75,3.05,DZA,DZ,DZA,DZ
Ecuador,ECU,Ecuador,Quito,presidential republic,US Dollar (USD),"109,483 Square Miles 283,561 Square Kilometers","Western South America, bordering the Pacific Ocean at the Equator, between Colombia and Peru","Spanish (official), Amerindian languages (especially Quechua)",-2.3%,"$11,000.00 (USD)",Ecuador,-0.22,-78.5,ECU,EC,ECU,EC
"Egypt, Arab Rep.",EGY,Egypt,Cairo,presidential republic,Egyptian pounds (EGP),"386,660 Square Miles 1,001,450 Square Kilometers","Northern Africa, bordering the Mediterranean Sea, between Libya and the Gaza Strip, and the Red Sea north of Sudan, and includes the Asian Sinai Peninsula","Arabic (official), English and French widely understood by educated classes",3.8%,"$12,100.00 (USD)","Egypt, Arab Rep.",30.05,31.25,EGY,EG,EGY,EG
Eritrea,ERI,Eritrea,Asmara,Presidential republic,nakfa (ERN),"45,405 Square Miles 117,600 Square Kilometers","Eastern Africa, bordering the Red Sea, between Djibouti and Sudan","Afar, Arabic, Tigre and Kunama, Tigrinya, other Cushitic languages",3.7%,"$1,300.00 (USD)",Eritrea,15.33,38.93,ERI,ER,ERI,ER
Spain,ESP,Spain,Madrid,parliamentary constitutional monarchy,Euro (EUR),"195,123 Square Miles 505,370 Square Kilometers","Southwestern Europe, bordering the Mediterranean Sea, North Atlantic Ocean, Bay of Biscay, and Pyrenees Mountains; southwest of France","Castilian Spanish (official) 74%, Catalan 17%, Galician 7%, and Basque 2%",3.1%,"$35,200.00 (USD)",Spain,40.4,-3.68,ESP,ES,ESP,ES
Estonia,EST,Estonia,Tallinn,Parliamentary republic,Euros (EUR),"17,463 Square Miles 45,228 Square Kilometers","Eastern Europe, bordering the Baltic Sea and Gulf of Finland, between Latvia and Russia","Estonian (official), Russian, Ukrainian, Finnish, other",1.5%,"$38,700.00 (USD)",Estonia,59.43,24.72,EST,EE,EST,EE
Ethiopia,ETH,Ethiopia,Addis Ababa,Federal parliamentary republic,birr (ETB),"426,370 Square Miles 1,104,300 Square Kilometers","Eastern Africa, west of Somalia","Amharic, Tigrinya, Oromigna, Guaragigna, Somali, Arabic, other local languages, English",6.5%,"$1,900.00 (USD)",Ethiopia,9.03,38.7,ETH,ET,ETH,ET
Finland,FIN,Finland,Helsinki,Parliamentary republic,Euro (EUR),"130,558 Square Miles 338,145 Square Kilometers","Northern Europe, bordering the Baltic Sea, Gulf of Bothnia, and Gulf of Finland, between Sweden and Russia","Finnish 93.4% (official), Swedish 5.9% (official), small Sami- and Russian-speaking minorities",2.8%,"$44,500.00 (USD)",Finland,60.17,24.93,FIN,FI,FIN,FI
Fiji,FJI,Fiji,Suva,Farliamentary republic,Fijian dollars (FJD),"7,056 Square Miles 18,274 Square Kilometers","Oceania, island group in the South Pacific Ocean, about two-thirds of the way from Hawaii to New Zealand","English (official), Fijian, Hindustani",3%,"$9,800.00 (USD)",Fiji,-18.13,178.42,FJI,FJ,FJI,FJ
France,FRA,France,Paris,semi-presidential republic,Euro (EUR),"248,572 Square Miles 643,801 Square Kilometers","Metropolitan France: Western Europe, bordering the Bay of Biscay and the English Channel, between Belgium and Spain, southeast of the United Kingdom; bordering the Mediterranean Sea, between Italy and Spain","French (official) 100%, rapidly declining regional dialects and languages (Provencal, Breton, Alsatian, Corsican, Catalan, Basque, Flemish) overseas departments: French, Creole patois, Mahorian (a Swahili dialect)",2.3%,"$44,100.00 (USD)",France,48.87,2.33,FRA,FR,FRA,FR
Faroe Islands,FRO,FaroeIslands,Tórshavn,parliamentary democracy (Faroese Parliament); part of the Kingdom of Denmark,Danish kroner (DKK),"538 Square Miles 1,393 Square Kilometers","Northern Europe, island group between the Norwegian Sea and the North Atlantic Ocean, about half way between Iceland and Norway","Faroese (derived from Old Norse), Danish",5.9%,"$40,000.00 (USD)",Faroe Islands,62.01,-6.77,FRO,FO,FRO,FO
"Micronesia, Fed. Sts.",FSM,Micronesia,Palikir,federal republic in free association with the US,US Dollar (USD),271 Square Miles 702 Square Kilometers,"Oceania, island group in the North Pacific Ocean, about three-quarters of the way from Hawaii to Indonesia","English (official and common language), Trukese, Pohnpeian, Yapese, Kosrean, Ulithian, Woleaian, Nukuoro, Kapingamarangi",-0.2%,"$3,000.00 (USD)","Micronesia, Fed. Sts.",6.92,158.15,FSM,FM,FSM,FM
Gabon,GAB,Gabon,Libreville,Presidential republic,CFA Franc BEAC (XAF),"103,346 Square Miles 267,667 Square Kilometers","Central Africa, bordering the Atlantic Ocean at the Equator, between Republic of the Congo and Equatorial Guinea","French (official), Fang, Myene, Nzebi, Bapounou/Eschira, Bandjabi",3.5%,"$21,700.00 (USD)",Gabon,0.38,9.45,GAB,GA,GAB,GA
United Kingdom,GBR,UnitedKingdom,London,parliamentary constitutional monarchy; a Commonwealth realm,Pound Sterling (GBP),"94,058 Square Miles 243,610 Square Kilometers","Western Europe, islands - including the northern one-sixth of the island of Ireland - between the North Atlantic Ocean and the North Sea; northwest of France",English,2.5%,"$41,200.00 (USD)",United Kingdom,51.5,-0.08,GBR,GB,GBR,GB
Georgia,GEO,Georgia,Tbilisi,Semi-presidential republic,Lari (GEL),"26,911 Square Miles 69,700 Square Kilometers","Southwestern Asia, bordering the Black Sea, between Turkey and Russia, with a sliver of land north of the Caucasus extending into Europe; note - Georgia views itself as part of Europe","Georgian 71% (official), Russian 9%, Armenian 7%, Azeri 6%, other 7%",2%,"$9,500.00 (USD)",Georgia,41.68,44.83,GEO,GE,GEO,GE
Ghana,GHA,Ghana,Accra,Presidential republic,Cedi (GHC),"92,098 Square Miles 238,533 Square Kilometers","Western Africa, bordering the Gulf of Guinea, between Cote d'Ivoire and Togo","English (official), African languages (including Akan, Moshi-Dagomba, Ewe, and Ga)",3.5%,"$4,300.00 (USD)",Ghana,5.55,-0.22,GHA,GH,GHA,GH
Gibraltar,GIB,Gibraltar,Gibraltar,Parliamentary democracy (Parliament); self-governing overseas territory of the UK,Gibraltar Pound (GIP),2 Square Miles 6 Square Kilometers,"Southwestern Europe, bordering the Strait of Gibraltar, which links the Mediterranean Sea and the North Atlantic Ocean, on the southern coast of Spain","English (used in schools and for official purposes), Spanish, Italian, Portuguese",6%,"$43,000.00 (USD)",Gibraltar,36.13,-5.35,GIB,GI,GIB,GI
Guinea,GIN,Guinea,Conakry,Presidential republic,Guinea Franc (GNF),"94,925 Square Miles 245,857 Square Kilometers","Western Africa, bordering the North Atlantic Ocean, between Guinea-Bissau and Sierra Leone","French (official), each ethnic group has its own language",,"$1,300.00 (USD)",Guinea,9.5,-13.7,GIN,GN,GIN,GN
"Gambia, The",GMB,TheGambia,Banjul,Presidential republic,Dalasi (GMD),"4,361 Square Miles 11,295 Square Kilometers","Western Africa, bordering the North Atlantic Ocean and Senegal","English (official), Mandinka, Wolof, Fula, other indigenous vernaculars",4.7%,"$1,700.00 (USD)","Gambia, The",13.45,-16.57,GMB,GM,GMB,GM
Guinea-Bissau,GNB,GuineaBissau,Bissau,Semi-presidential republic,Guinea-Bissau Peso (GWP) and CFA Franc BCEAO (XOF),"13,948 Square Miles 36,125 Square Kilometers","Western Africa, bordering the North Atlantic Ocean, between Guinea and Senegal","Portuguese (official), Crioulo, African languages",4.7%,"$1,500.00 (USD)",Guinea-Bissau,11.85,-15.58,GNB,GW,GNB,GW
Equatorial Guinea,GNQ,EquatorialGuinea,Malabo,Presidential republic,Cooperation Financiere en Afrique Centrale francs (XAF),"10,830 Square Miles 28,051 Square Kilometers","Central Africa, bordering the Bight of Biafra, between Cameroon and Gabon","Spanish (official), French (official), pidgin English, Fang, Bubi, Ibo",-9.9%,"$38,700.00 (USD)",Equatorial Guinea,3.75,8.78,GNQ,GQ,GNQ,GQ
Greece,GRC,Greece,Athens,parliamentary republic,Euro (EUR),"50,949 Square Miles 131,957 Square Kilometers","Southern Europe, bordering the Aegean Sea, Ionian Sea, and the Mediterranean Sea, between Albania and Turkey","Greek (official) 99%,",-2.3%,"$25,600.00 (USD)",Greece,37.98,23.73,GRC,GR,GRC,GR
Grenada,GRD,Grenada,St. George's,Parliamentary democracy under a constitutional monarchy; a Commonwealth realm,East Caribbean Dollar (XCD),133 Square Miles 344 Square Kilometers,"Caribbean, island between the Caribbean Sea and Atlantic Ocean, north of Trinidad and Tobago","English (official), French patois",3.4%,"$13,000.00 (USD)",Grenada,32.38,-64.68,GRD,GD,GRD,GD
Greenland,GRL,Greenland,Nuuk,Parliamentary democracy (Parliament of Greenland or Inatsisartut),Danish Krone (DKK),"836,326 Square Miles 2,166,086 Square Kilometers","Northern North America, island between the Arctic Ocean and the North Atlantic Ocean, northeast of Canada","Greenlandic (East Inuit), Danish, English",0.9%,"$37,900.00 (USD)",Greenland,64.18,-51.75,GRL,GL,GRL,GL
Guatemala,GTM,Guatemala,Guatemala City,presidential republic,Quetzal (GTQ),"42,042 Square Miles 108,889 Square Kilometers","Central America, bordering the North Pacific Ocean, between El Salvador and Mexico, and bordering the Gulf of Honduras (Caribbean Sea) between Honduras and Belize","Spanish 60%, Amerindian languages 40% (23 officially recognized Amerindian languages, including Quiche, Cakchiquel, Kekchi, Mam, Garifuna, and Xinca)",3.8%,"$7,900.00 (USD)",Guatemala,14.62,-90.52,GTM,GT,GTM,GT
Guam,GUM,Guam,Hagåtña,"Unincorporated organized territory of the US with local self-government; republican form of territorial government with separate executive, legislative, and judicial branches",US Dollar (USD),210 Square Miles 544 Square Kilometers,"Oceania, island in the North Pacific Ocean, about three-quarters of the way from Hawaii to the Philippines","English, Chamorro, Japanese",0.6%,"$30,500.00 (USD)",Guam,13.48,144.75,GUM,GU,GUM,GU
Guyana,GUY,Guyana,Georgetown,Parliamentary republic,Guyana Dollar (GYD),"83,000 Square Miles 214,969 Square Kilometers","Northern South America, bordering the North Atlantic Ocean, between Suriname and Venezuela","English, Amerindian dialects, Creole, Hindi, Urdu",3.2%,"$7,200.00 (USD)",Guyana,6.8,-58.15,GUY,GY,GUY,GY
"Hong Kong SAR, China",HKG,HongKong,City of Victoria,Presidential limited democracy; a special administrative region of the People's Republic of China,Hong Kong Dollar (HKD),"426 Square Miles 1,104 Square Kilometers","Eastern Asia, bordering the South China Sea and China","Chinese (Cantonese), English; both are official",2.5%,"$57,000.00 (USD)","Hong Kong SAR, China",22.267,114.188,HKG,HK,HKG,HK
Honduras,HND,Honduras,Tegucigalpa,Presidential republic,Lempira (HNL),"43,278 Square Miles 112,090 Square Kilometers","Central America, bordering the Caribbean Sea, between Guatemala and Nicaragua and bordering the Gulf of Fonseca (North Pacific Ocean), between El Salvador and Nicaragua","Spanish, Amerindian dialects",3.5%,"$5,000.00 (USD)",Honduras,14.1,-87.22,HND,HN,HND,HN
Croatia,HRV,Croatia,Zagreb,Parliamentary republic,kuna (HRK),"21,851 Square Miles 56,594 Square Kilometers","Southeastern Europe, bordering the Adriatic Sea, between Bosnia and Herzegovina and Slovenia","Croatian 96%, other 4% (including Italian, Hungarian, Czech, Slovak, and German)",1.9%,"$22,400.00 (USD)",Croatia,45.8,16.0,HRV,HR,HRV,HR
Haiti,HTI,Haiti,Port-au-Prince,Semi-presidential republic,Haitian Gourde (HTG) and US Dollar (USD),"10,714 Square Miles 27,750 Square Kilometers","Caribbean, western one-third of the island of Hispaniola, between the Caribbean Sea and the North Atlantic Ocean, west of the Dominican Republic","French (official), Creole (official)",2.5%,"$1,800.00 (USD)",Haiti,18.53,-72.33,HTI,HT,HTI,HT
Hungary,HUN,Hungary,Budapest,Parliamentary republic,Forint (HUF),"35,918 Square Miles 93,028 Square Kilometers","Central Europe, northwest of Romania","Hungarian 98.2%, other 1.8%",3%,"$26,000.00 (USD)",Hungary,47.5,19.08,HUN,HU,HUN,HU
Indonesia,IDN,Indonesia,Jakarta,presidential republic,Rupiah (IDR),"735,354 Square Miles 1,904,569 Square Kilometers","Southeastern Asia, archipelago between the Indian Ocean and the Pacific Ocean","Bahasa Indonesia (official, modified form of Malay), English, Dutch, local dialects",4.7%,"$11,300.00 (USD)",Indonesia,-6.17,106.82,IDN,ID,IDN,ID
India,IND,India,New Delhi,federal parliamentary republic,Indian Rupee (INR),"1,269,212 Square Miles 3,287,263 Square Kilometers","Southern Asia, bordering the Arabian Sea and the Bay of Bengal, between Burma and Pakistan","Hindi 41%, Bengali 8.1%, Telugu 7.2%, Marathi 7%, Tamil 5.9%, Urdu 5%, Gujarati 4.5%, Kannada 3.7%, Malayalam 3.2%, Oriya 3.2%, Punjabi 2.8%, Assamese 1.3%, Maithili 1.2%, other 5.9%",7.3%,"$6,300.00 (USD)",India,28.6,77.2,IND,IN,IND,IN
Ireland,IRL,Ireland,Dublin,parliamentary republic,Euro (EUR),"27,132 Square Miles 70,273 Square Kilometers","Western Europe, occupying five-sixths of the island of Ireland in the North Atlantic Ocean, west of Great Britain","English (official, the language generally used), Irish (Gaelic or Gaeilge) (official, spoken mainly in areas along the western coast)",4.8%,"$54,300.00 (USD)",Ireland,53.32,-6.23,IRL,IE,IRL,IE
"Iran, Islamic Rep.",IRN,Iran,Tehran,theocratic republic,Iranian Rial (IRR),"636,368 Square Miles 1,648,195 Square Kilometers","Middle East, bordering the Gulf of Oman, the Persian Gulf, and the Caspian Sea, between Iraq and Pakistan","Persian and Persian dialects 58%, Turkic and Turkic dialects 26%, Kurdish 9%, Luri 2%, Balochi 1%, Arabic 1%, Turkish 1%, other 2%",0.8%,"$17,800.00 (USD)","Iran, Islamic Rep.",35.7,51.42,IRN,IR,IRN,IR
Iraq,IRQ,Iraq,Baghdad,federal parliamentary republic,Iraqi Dinar (IQD),"169,234 Square Miles 438,317 Square Kilometers","Middle East, bordering the Persian Gulf, between Iran and Kuwait","Arabic, Kurdish (official in Kurdish regions), Assyrian, Armenian",,"$15,500.00 (USD)",Iraq,33.33,44.4,IRQ,IQ,IRQ,IQ
Iceland,ISL,Iceland,Reykjavik,Unitary parliamentary republic,Euro (EUR),"39,768 Square Miles 103,000 Square Kilometers","Northern Europe, island between the Greenland Sea and the North Atlantic Ocean, northwest of the United Kingdom","Icelandic, English, Nordic languages, German widely spoken",3.7%,"$46,600.00 (USD)",Iceland,64.15,-21.95,ISL,IS,ISL,IS
Israel,ISR,Israel,Jerusalem,parliamentary democracy,New Israeli Sheqel (ILS),"8,019 Square Miles 20,770 Square Kilometers","Middle East, bordering the Mediterranean Sea, between Egypt and Lebanon","Hebrew (official), Arabic used officially for Arab minority, English most commonly used foreign language.",2.5%,"$34,300.00 (USD)",Israel,31.77,35.23,ISR,IL,ISR,IL
Italy,ITA,Italy,Rome,parliamentary republic,Euros (EUR),"116,347 Square Miles 301,340 Square Kilometers","Southern Europe, a peninsula extending into the central Mediterranean Sea, northeast of Tunisia","Italian (official), German (parts of Trentino-Alto Adige region are predominantly German-speaking), French (small French-speaking minority in Valle d'Aosta region), Slovene (Slovene-speaking minority in the Trieste-Gorizia area)",0.8%,"$35,800.00 (USD)",Italy,41.9,12.48,ITA,IT,ITA,IT
Jamaica,JAM,Jamaica,Kingston,parliamentary democracy (Parliament) under a constitutional monarchy; a Commonwealth realm,Jamaican Dollar (JMD),"4,244 Square Miles 10,991 Square Kilometers","Caribbean, island in the Caribbean Sea, south of Cuba","English, patois English",1.1%,"$8,800.00 (USD)",Jamaica,17.99702,-76.79358,JAM,JM,JAM,JM
Jordan,JOR,Jordan,Amman,parliamentary constitutional monarchy,Jordanian Dollar (JOD),"34,495 Square Miles 89,342 Square Kilometers","Middle East, northwest of Saudi Arabia, between Israel (to the west) and Iraq","Arabic (official), English widely understood among upper and middle classes",2.9%,"$12,400.00 (USD)",Jordan,31.95,35.93,JOR,JO,JOR,JO
Japan,JPN,Japan,Tokyo,parliamentary constitutional monarchy,Yen (JPY),"145,913 Square Miles 377,915 Square Kilometers","Eastern Asia, island chain between the North Pacific Ocean and the Sea of Japan, east of the Korean Peninsula",Japanese,0.6%,"$38,200.00 (USD)",Japan,35.68,139.75,JPN,JP,JPN,JP
Kazakhstan,KAZ,Kazakhstan,Nur-Sultan,presidential republic,Tennge (KZT),"1,052,084 Square Miles 2,724,900 Square Kilometers","Central Asia, northwest of China; a small portion west of the Ural (Zhayyq) River in eastern-most Europe","Kazakh (Qazaq, state language) 64.4%, Russian (official, used in everyday business, designated the ""language of interethnic communication"") 95%",1.5%,"$24,700.00 (USD)",Kazakhstan,51.16,71.45,KAZ,KZ,KAZ,KZ
Kenya,KEN,Kenya,Nairobi,presidential republic,Kenyan Shilling (KES),"224,080 Square Miles 580,367 Square Kilometers","Eastern Africa, bordering the Indian Ocean, between Somalia and Tanzania","English (official), Kiswahili (official), numerous indigenous languages",6.5%,"$3,300.00 (USD)",Kenya,-1.28,36.82,KEN,KE,KEN,KE
Kyrgyz Republic,KGZ,Kyrgyzstan,Bishkek,parliamentary republic,Som (KWD),"77,201 Square Miles 199,951 Square Kilometers","Central Asia, west of China, south of Kazakhstan","Kyrgyz - official language, Russian - official language",2%,"$3,400.00 (USD)",Kyrgyz Republic,42.87,74.6,KGZ,KG,KGZ,KG
Cambodia,KHM,Cambodia,Phnom Penh,parliamentary constitutional monarchy,riels (KHR),"69,898 Square Miles 181,035 Square Kilometers","Southeastern Asia, bordering the Gulf of Thailand, between Thailand, Vietnam, and Laos","Khmer (official) 95%, French, English",7%,"$3,700.00 (USD)",Cambodia,11.55,104.92,KHM,KH,KHM,KH
Kiribati,KIR,Kiribati,South Tarawa,presidential republic,Australian Dollar (AUD),313 Square Miles 811 Square Kilometers,"Oceania, group of 33 coral atolls in the Pacific Ocean, straddling the Equator, as well as the International Date Line; the capital Tarawa is about half way between Hawaii and Australia","I-Kiribati, English (official)",1.8%,"$2,200.00 (USD)",Kiribati,1.33,172.98,KIR,KI,KIR,KI
St. Kitts and Nevis,KNA,SaintKittsandNevis,Basseterre,federal parliamentary democracy under a constitutional monarchy; a Commonwealth realm,East Caribbean Dollar (XCD),101 Square Miles 261 Square Kilometers,"Caribbean, islands in the Caribbean Sea, about one-third of the way from Puerto Rico to Trinidad and Tobago",English,5%,"$22,800.00 (USD)",St. Kitts and Nevis,17.3,-62.72,KNA,KN,KNA,KN
"Korea, Rep.",KOR,KoreaSouth,Seoul,presidential republic,Won (KRW),"38,502 Square Miles 99,720 Square Kilometers","Eastern Asia, southern half of the Korean Peninsula bordering the Sea of Japan and the Yellow Sea",Korean,2.7%,"$36,700.00 (USD)","Korea, Rep.",37.55,126.98,KOR,KR,KOR,KR
Kuwait,KWT,Kuwait,Kuwait City,constitutional monarchy (emirate),Kuwaiti Dinar (KWD),"6,880 Square Miles 17,818 Square Kilometers","Middle East, bordering the Persian Gulf, between Iraq and Saudi Arabia","Arabic (official), English widely spoken",1.2%,"$72,200.00 (USD)",Kuwait,29.37,47.97,KWT,KW,KWT,KW
Lao PDR,LAO,Laos,Vientiane,communist state,Kip (LAK),"91,428 Square Miles 236,800 Square Kilometers","Southeastern Asia, northeast of Thailand, west of Vietnam","Lao (official), French, English, and various ethnic languages",7.5%,"$5,400.00 (USD)",Lao PDR,17.97,102.6,LAO,LA,LAO,LA
Lebanon,LBN,Lebanon,Beirut,parliamentary republic,Lebanes Pouind (LBP),"4,015 Square Miles 10,400 Square Kilometers","Middle East, bordering the Mediterranean Sea, between Israel and Syria","Arabic (official), French, English, Armenian",2%,"$18,600.00 (USD)",Lebanon,33.87,35.5,LBN,LB,LBN,LB
Liberia,LBR,Liberia,Monrovia,presidential republic,Liberian Dollar (LRD),"43,000 Square Miles 111,369 Square Kilometers","Western Africa, bordering the North Atlantic Ocean, between Cote d'Ivoire and Sierra Leone","English 20% (official), some 20 ethnic group languages, of which a few can be written and are used in correspondence",0.9%,$900.00 (USD),Liberia,6.3,-10.8,LBR,LR,LBR,LR
Libya,LBY,Libya,Tripoli,in transition,Lybian Dinar (LYD),"679,358 Square Miles 1,759,540 Square Kilometers","Northern Africa, bordering the Mediterranean Sea, between Egypt, Tunisia, and Algeria","Arabic, Italian, English, all are widely understood in the major cities",-6.1%,"$15,100.00 (USD)",Libya,32.88,13.17,LBY,LY,LBY,LY
St. Lucia,LCA,SaintLucia,Castries,parliamentary democracy under a constitutional monarchy; a Commonwealth realm,East Caribbean Dollar (XCD),238 Square Miles 616 Square Kilometers,"Caribbean, island between the Caribbean Sea and North Atlantic Ocean, north of Trinidad and Tobago","English (official), French patois",1.8%,"$12,000.00 (USD)",St. Lucia,14.0,-61.0,LCA,LC,LCA,LC
Liechtenstein,LIE,Liechtenstein,Vaduz,constitutional monarchy,Swiss Franc (CHF),62 Square Miles 160 Square Kilometers,"Central Europe, between Austria and Switzerland","German (official), Alemannic dialect",1.8%,"$89,400.00 (USD)",Liechtenstein,47.13,9.52,LIE,LI,LIE,LI
Sri Lanka,LKA,SriLanka,Sri Jayawardenepura Kotte,presidential republic,Sri Lanka Rupee (LKR),"25,332 Square Miles 65,610 Square Kilometers","Southern Asia, island in the Indian Ocean, south of India","Sinhala (official) 74%, Tamil (national language) 18%, other 8%. English is widely understood.",5.5%,"$11,200.00 (USD)",Sri Lanka,6.89,79.9,LKA,LK,LKA,LK
Lesotho,LSO,Lesotho,Maseru,parliamentary constitutional monarchy,Loti (LSL),"11,720 Square Miles 30,355 Square Kilometers","Southern Africa, an enclave of South Africa","Sesotho (southern Sotho), English (official), Zulu, Xhosa",2.6%,"$3,000.00 (USD)",Lesotho,-29.32,27.48,LSO,LS,LSO,LS
Lithuania,LTU,Lithuania,Vilnius,semi-presidential republic,Euro (EUR),"25,212 Square Miles 65,300 Square Kilometers","Eastern Europe, bordering the Baltic Sea, between Latvia and Russia","Lithuanian (official), Polish, Russian",1.8%,"$28,000.00 (USD)",Lithuania,54.68,25.32,LTU,LT,LTU,LT
Luxembourg,LUX,Luxembourg,Luxembourg,constitutional monarchy,Euro (EUR),"998 Square Miles 2,586 Square Kilometers","Western Europe, between France and Germany","Luxembourgish (national language), German (administrative language), French",4.4%,"$102,900.00 (USD)",Luxembourg,49.6,6.12,LUX,LU,LUX,LU
Latvia,LVA,Latvia,Riga,parliamentary republic,Euro (EUR),"24,938 Square Miles 64,589 Square Kilometers","Eastern Europe, bordering the Baltic Sea, between Estonia and Lithuania","Latvian (official), Lithuanian, Russian, other",2.2%,"$24,500.00 (USD)",Latvia,56.95,24.1,LVA,LV,LVA,LV
"Macao SAR, China",MAC,Macau,,executive-led limited democracy; a special administrative region of the People's Republic of China,Macanese Pataca (MOP),11 Square Miles 28 Square Kilometers,"Eastern Asia, bordering the South China Sea and China","Portuguese, Chinese (Cantonese)",11.9%,"$88,700.00 (USD)","Macao SAR, China",,,MAC,MO,MAC,MO
Morocco,MAR,Morocco,Rabat,parliamentary constitutional monarchy,Moroccan Dirham (MAD),"172,413 Square Miles 446,550 Square Kilometers","Northern Africa, bordering the North Atlantic Ocean and the Mediterranean Sea, between Algeria and Western Sahara","Arabic (official), Berber dialects, French",4.9%,"$8,300.00 (USD)",Morocco,34.02,-6.82,MAR,MA,MAR,MA
Monaco,MCO,Monaco,Monaco,constitutional monarchy,Euro (EUR),1 Square Miles 2 Square Kilometers,"Western Europe, bordering the Mediterranean Sea on the southern coast of France, near the border with Italy","French (official), English, Italian, Monegasque",9.3%,"$78,700.00 (USD)",Monaco,43.73,7.42,MCO,MC,MCO,MC
Moldova,MDA,Moldova,Chișinău,parliamentary republic,Moldovan Leu (MDL),"13,070 Square Miles 33,851 Square Kilometers","Eastern Europe, northeast of Romania","Moldovan (official, virtually the same as the Romanian language), Russian, Gagauz (a Turkish dialect)",-1%,"$5,000.00 (USD)",Moldova,47.01,28.9,MDA,MD,MDA,MD
Madagascar,MDG,Madagascar,Antananarivo,semi-presidential republic,Malagasy Franc (MGF),"226,657 Square Miles 587,041 Square Kilometers","Southern Africa, island in the Indian Ocean, east of Mozambique","French (official), Malagasy (official)",3.4%,"$1,500.00 (USD)",Madagascar,-18.92,47.52,MDG,MG,MDG,MG
Maldives,MDV,Maldives,Malé,presidential republic,Rufiyaa (MVR),115 Square Miles 298 Square Kilometers,"Southern Asia, group of atolls in the Indian Ocean, south-southwest of India","Maldivian Dhivehi (dialect of Sinhala, script derived from Arabic), English spoken by most government officials",7.6%,"$13,600.00 (USD)",Maldives,4.17,73.51,MDV,MV,MDV,MV
Mexico,MEX,Mexico,Mexico City,federal presidential republic,Mexican Peso (MXN),"758,445 Square Miles 1,964,375 Square Kilometers","North America, bordering the Caribbean Sea and the Gulf of Mexico, between Belize and the United States and bordering the North Pacific Ocean, between Guatemala and the United States","Spanish only 92.7%, Spanish and indigenous languages 5.7%, indigenous only 0.8%, unspecified 0.8%",2.3%,"$18,500.00 (USD)",Mexico,19.43,-99.13,MEX,MX,MEX,MX
Marshall Islands,MHL,MarshallIslands,Majuro,mixed presidential-parliamentary system in free association with the US,US Dollar (USD),70 Square Miles 181 Square Kilometers,"Oceania, two archipelagic island chains of 29 atolls, each made up of many small islets, and five single islands in the North Pacific Ocean, about half way between Hawaii and Australia","English (widely spoken as a second language, both English and Marshallese are official languages), two major Marshallese dialects from the Malayo-Polynesian family, Japanese",1.7%,"$3,400.00 (USD)",Marshall Islands,7.1,171.38,MHL,MH,MHL,MH
North Macedonia,MKD,Macedonia,Skopje,parliamentary republic,Macedonian Denar (MKD),"9,928 Square Miles 25,713 Square Kilometers","Southeastern Europe, north of Greece","Macedonian 68%, Albanian 25%, Turkish 3%, Serbo-Croatian 2%, other 2%",3.2%,"$14,000.00 (USD)",North Macedonia,42.0,21.43,MKD,MK,MKD,MK
Mali,MLI,Mali,Bamako,semi-presidential republic,CFA Franc BCEAO (XOF),"478,838 Square Miles 1,240,192 Square Kilometers","interior Western Africa, southwest of Algeria, north of Guinea, Cote d'Ivoire, and Burkina Faso, west of Niger","French (official), Bambara 80%, numerous African languages",5%,"$1,800.00 (USD)",Mali,12.65,-8.0,MLI,ML,MLI,ML
Malta,MLT,Malta,Valletta,parliamentary republic,Euros (EUR),122 Square Miles 316 Square Kilometers,"Southern Europe, islands in the Mediterranean Sea, south of Sicily (Italy)","Maltese (official), English (official)",3.4%,"$34,700.00 (USD)",Malta,35.88,14.5,MLT,MT,MLT,MT
Myanmar,MMR,Burma,Naypyidaw,military regime,kyats (MMK),"261,227 Square Miles 676,578 Square Kilometers","Southeastern Asia, bordering the Andaman Sea and the Bay of Bengal, between Bangladesh and Thailand",Burmese,8.1%,"$6,000.00 (USD)",Myanmar,19.76,96.07,MMR,MM,MMR,MM
Montenegro,MNE,Montenegro,Podgorica,parliamentary republic,Euro (EUR),"5,333 Square Miles 13,812 Square Kilometers","Southeastern Europe, between the Adriatic Sea and Serbia",Serbian (Ijekavian dialect - official),3.2%,"$15,700.00 (USD)",Montenegro,42.43,19.27,MNE,ME,MNE,ME
Mongolia,MNG,Mongolia,Ulan Bator,semi-presidential republic,Mongolia Tughrik (MNT),"603,905 Square Miles 1,564,116 Square Kilometers","Northern Asia, between China and Russia","Khalkha Mongol 90%, Turkic, Russian",3.5%,"$12,500.00 (USD)",Mongolia,47.92,106.91,MNG,MN,MNG,MN
Northern Mariana Islands,MNP,NorthernMarianaIslands,Saipan,"a commonwealth in political union with and under the sovereignty of the US; republican form of government with separate executive, legislative, and judicial branches",US Dollar (USD),179 Square Miles 464 Square Kilometers,"Oceania, islands in the North Pacific Ocean, about three-quarters of the way from Hawaii to the Philippines","English, Chamorro, Carolinian",4.5%,"$13,300.00 (USD)",Northern Mariana Islands,15.2,145.75,MNP,MP,MNP,MP
Mozambique,MOZ,Mozambique,Maputo,presidential republic,Mozambican Metical (MZM),"308,641 Square Miles 799,380 Square Kilometers","South-eastern Africa, bordering the Mozambique Channel, between South Africa and Tanzania","Portuguese (official), indigenous dialects",7%,"$1,300.00 (USD)",Mozambique,-25.95,32.58,MOZ,MZ,MOZ,MZ
Mauritania,MRT,Mauritania,Nouakchott,presidential republic,Ouguiya (MRO),"397,953 Square Miles 1,030,700 Square Kilometers","Western Africa, bordering the North Atlantic Ocean, between Senegal and Western Sahara","Hassaniya Arabic (official), Pulaar, Soninke, Wolof (official), French",4.1%,"$4,500.00 (USD)",Mauritania,18.07,-15.97,MRT,MR,MRT,MR
Mauritius,MUS,Mauritius,Port Louis,parliamentary republic,Mauritius Rupee (MUR),"788 Square Miles 2,040 Square Kilometers","Southern Africa, island in the Indian Ocean, east of Madagascar","English (official), Creole, French (official), Hindi, Urdu, Hakka, Bhojpuri",3.2%,"$19,500.00 (USD)",Mauritius,-20.15,57.48,MUS,MU,MUS,MU
Malawi,MWI,Malawi,Lilongwe,presidential republic,Kwacha (MWK),"45,747 Square Miles 118,484 Square Kilometers","Southern Africa, east of Zambia, west and north of Mozambique","English (official), Chichewa (official), other languages important regionally",4%,"$1,200.00 (USD)",Malawi,-13.97,33.78,MWI,MW,MWI,MW
Malaysia,MYS,Malaysia,Kuala Lumpur,federal parliamentary constitutional monarchy,Malaysian Ringgit (MYR),"127,354 Square Miles 329,847 Square Kilometers","Southeastern Asia, peninsula bordering Thailand and northern one-third of the island of Borneo, bordering Indonesia, Brunei, and the South China Sea, south of Vietnam","Bahasa Melayu (official), English, Chinese dialects (Cantonese, Mandarin, Hokkien, Hakka, Hainan, Foochow), Tamil, Telugu, Malayalam, Panjabi, Thai",4.7%,"$26,600.00 (USD)",Malaysia,3.17,101.7,MYS,MY,MYS,MY
Namibia,NAM,Namibia,Windhoek,presidential republic,Namibia Dollar (NAD) and South Afrtican Rand (ZAR),"318,259 Square Miles 824,292 Square Kilometers","Southern Africa, bordering the South Atlantic Ocean, between Angola and South Africa","English 7% (official), Afrikaans common language of most of the population and about 60% of the white population, German 32%, indigenous languages: Oshivambo, Herero, Nama",4.8%,"$11,300.00 (USD)",Namibia,-22.57,17.08,NAM,,NAM,
New Caledonia,NCL,NewCaledonia,Nouméa,parliamentary democracy (Territorial Congress); an overseas collectivity of France,CFP Franc (XPF),"7,172 Square Miles 18,575 Square Kilometers","Oceania, islands in the South Pacific Ocean, east of Australia","French (official), 33 Melanesian-Polynesian dialects",2.8%,"$38,800.00 (USD)",New Caledonia,-22.27,166.45,NCL,NC,NCL,NC
Niger,NER,Niger,Niamey,semi-presidential republic,West Afrtican CFA Franc (XOF),"489,189 Square Miles 1,267,000 Square Kilometers","Western Africa, southeast of Algeria","French (official), Hausa, Djerma",4.3%,"$1,100.00 (USD)",Niger,13.52,2.12,NER,NE,NER,NE
Nigeria,NGA,Nigeria,Abuja,federal presidential republic,Nigerian Naira (NGN),"356,667 Square Miles 923,768 Square Kilometers","Western Africa, bordering the Gulf of Guinea, between Benin and Cameroon","English (official), Hausa, Yoruba, Igbo (Ibo), Fulani",4%,"$6,400.00 (USD)",Nigeria,9.08,7.53,NGA,NG,NGA,NG
Nicaragua,NIC,Nicaragua,Managua,presidential republic,Nicaraguan Cordoba (NIO),"50,336 Square Miles 130,370 Square Kilometers","Central America, bordering both the Caribbean Sea and the North Pacific Ocean, between Costa Rica and Honduras",Spanish (official),4%,"$5,000.00 (USD)",Nicaragua,12.13,-86.25,NIC,NI,NIC,NI
Netherlands,NLD,Netherlands,Amsterdam,parliamentary constitutional monarchy; part of the Kingdom of the Netherlands,Euro (EUR),"16,040 Square Miles 41,543 Square Kilometers","Western Europe, bordering the North Sea, between Belgium and Germany","Dutch (official language), Frisian (official language)",1.8%,"$49,300.00 (USD)",Netherlands,52.35,4.92,NLD,NL,NLD,NL
Norway,NOR,Norway,Oslo,parliamentary constitutional monarchy,Norwegian Krone (NOK),"125,020 Square Miles 323,802 Square Kilometers","Northern Europe, bordering the North Sea and the North Atlantic Ocean, west of Sweden","Bokmal Norwegian (official), Nynorsk Norwegian (official)",0.9%,"$68,400.00 (USD)",Norway,59.92,10.75,NOR,NO,NOR,NO
Nepal,NPL,Nepal,Kathmandu,federal parliamentary republic,Nepalese Rupee (NPR),"56,827 Square Miles 147,181 Square Kilometers","Southern Asia, between China and India","Nepali (official; spoken by 90% of the population), about a dozen other languages and about 30 major dialects",7.9%,"$3,417.00 (USD)",Nepal,27.72,85.32,NPL,NP,NPL,NP
Nauru,NRU,Nauru,Yaren,parliamentary republic,Australian Dollar (AUD),8 Square Miles 21 Square Kilometers,"Oceania, island in the South Pacific Ocean, south of the Marshall Islands","Nauruan (official, a distinct Pacific Island language), English widely understood, spoken, and used for most government and commercial purposes",8%,"$14,800.00 (USD)",Nauru,-0.55,166.92,NRU,NR,NRU,NR
New Zealand,NZL,NewZealand,Wellington,parliamentary democracy under a constitutional monarchy; a Commonwealth realm,New Zealand Dollar (NZD),"103,363 Square Miles 267,710 Square Kilometers","Oceania, islands in the South Pacific Ocean, southeast of Australia","English (official), Maori (official)",2.2%,"$36,400.00 (USD)",New Zealand,-41.3,174.78,NZL,NZ,NZL,NZ
Oman,OMN,Oman,Muscat,absolute monarchy,Omani Rial (OMR),"119,498 Square Miles 309,500 Square Kilometers","Middle East, bordering the Arabian Sea, Gulf of Oman, and Persian Gulf, between Yemen and UAE","Arabic (official), English, Baluchi, Urdu, Indian dialects",4.4%,"$46,200.00 (USD)",Oman,23.62,58.58,OMN,OM,OMN,OM
Pakistan,PAK,Pakistan,Islamabad,federal parliamentary republic,Pakistan Rupee (PKR),"307,372 Square Miles 796,095 Square Kilometers","Southern Asia, bordering the Arabian Sea, between India on the east and Iran and Afghanistan on the west and China in the north","Punjabi 48%, Sindhi 12%, Siraiki (a Punjabi variant) 10%, Pashtu 8%, Urdu (official) 8%, Balochi 3%, Hindko 2%, Brahui 1%, English (official and lingua franca of Pakistani elite and most government ministries), Burushaski, and other 8%",4.2%,"$4,900.00 (USD)",Pakistan,33.68,73.05,PAK,PK,PAK,PK
Panama,PAN,Panama,Panama City,presidential republic,Panamanian Balboa (PAB) and US Dollar (USD),"29,120 Square Miles 75,420 Square Kilometers","Central America, bordering both the Caribbean Sea and the North Pacific Ocean, between Colombia and Costa Rica","Spanish (official), English 14%",6%,"$20,900.00 (USD)",Panama,8.97,-79.53,PAN,PA,PAN,PA
Peru,PER,Peru,Lima,presidential republic,Peruvian (Nuevo) Sol (PEN),"496,222 Square Miles 1,285,216 Square Kilometers","Western South America, bordering the South Pacific Ocean, between Chile and Ecuador","Spanish (official) 84.1%, Quechua (official) 13%, Aymara (official) 1.7%, Ashaninka 0.3%, other native languages (includes a large number of minor Amazonian languages) 0.7%, other 0.2%",2.4%,"$12,300.00 (USD)",Peru,-12.05,-77.05,PER,PE,PER,PE
Philippines,PHL,Philippines,Manila,presidential republic,Philippines Peso (PHP),"115,830 Square Miles 300,000 Square Kilometers","Southeastern Asia, archipelago between the Philippine Sea and the South China Sea, east of Vietnam","two official languages - Filipino (based on Tagalog) and English; eight major dialects - Tagalog, Cebuano, Ilocano, Hiligaynon or Ilonggo, Bicol, Waray, Pampango, and Pangasinense",6%,"$7,500.00 (USD)",Philippines,14.6,120.97,PHL,PH,PHL,PH
Palau,PLW,Palau,Ngerulmud,presidential republic in free association with the US,US Dollar (USD),177 Square Miles 459 Square Kilometers,"Oceania, group of islands in the North Pacific Ocean, southeast of the Philippines","English and Palauan official in all states except Sonsoral (Sonsoralese and English are official), Tobi (Tobi and English are official), and Angaur (Angaur, Japanese, and English are official)",4%,"$14,800.00 (USD)",Palau,7.5,134.62,PLW,PW,PLW,PW
Papua New Guinea,PNG,PapuaNewGuinea,Port Moresby,parliamentary democracy under a constitutional monarchy; a Commonwealth realm,Papua New Guinean Kina (PGK),"178,703 Square Miles 462,840 Square Kilometers","Oceania, group of islands including the eastern half of the island of New Guinea between the Coral Sea and the South Pacific Ocean, east of Indonesia","Melanesian Pidgin serves as the lingua franca, English spoken by 1%-2%, Motu spoken in Papua region",16%,"$2,800.00 (USD)",Papua New Guinea,-9.45,147.18,PNG,PG,PNG,PG
Poland,POL,Poland,Warsaw,parliamentary republic,Polish Zloty (PLN),"120,728 Square Miles 312,685 Square Kilometers","Central Europe, east of Germany",Polish,3.5%,"$26,400.00 (USD)",Poland,52.25,21.0,POL,PL,POL,PL
Puerto Rico,PRI,PuertoRico,San Juan,"unincorporated organized territory of the US with local self-government; republican form of territorial government with separate executive, legislative, and judicial branches; note - reference Puerto Rican Federal Relations Act, 2 March 1917, as amended by Public Law 600, 3 July 1950",US Dollar (USD),"5,324 Square Miles 13,790 Square Kilometers","Caribbean, island between the Caribbean Sea and the North Atlantic Ocean, east of the Dominican Republic",Spanish,-0.6%,"$28,500.00 (USD)",Puerto Rico,18.47,-66.12,PRI,PR,PRI,PR
"Korea, Dem. People's Rep.",PRK,KoreaNorth,Pyongyang,"dictatorship, single-party state; official state ideology of ""Juche"" or ""national self-reliance""",North Korean Won (KPW),"46,540 Square Miles 120,538 Square Kilometers","Eastern Asia, northern half of the Korean Peninsula bordering the Korea Bay and the Sea of Japan, between China and South Korea",Korean,1%,"$1,800.00 (USD)","Korea, Dem. People's Rep.",39.02,125.75,PRK,KP,PRK,KP
Portugal,PRT,Portugal,Lisbon,semi-presidential republic,Euro (EUR),"35,556 Square Miles 92,090 Square Kilometers","Southwestern Europe, bordering the North Atlantic Ocean, west of Spain","Portuguese (official), Mirandese (official - but locally used)",1.6%,"$27,800.00 (USD)",Portugal,38.72,-9.13,PRT,PT,PRT,PT
Paraguay,PRY,Paraguay,Asunción,presidential republic,Paraguayan Guarani (PYG),"157,047 Square Miles 406,752 Square Kilometers","Central South America, northeast of Argentina, southwest of Brazil","Spanish (official), Guarani (official)",3%,"$8,800.00 (USD)",Paraguay,-25.28,-57.57,PRY,PY,PRY,PY
French Polynesia,PYF,FrenchPolynesia,Papeetē,Parliamentary democracy (Assembly of French Polynesia); an overseas collectivity of France,CFP Franc (XPF),"1,609 Square Miles 4,167 Square Kilometers","Oceania, five archipelagoes (Archipel Des Tuamotu, Iles Gambier, Iles Marquises, Iles Tubuai, Society Islands) in the South Pacific Ocean about half way between South America and Australia","French (official), Tahitian (official)",2.4%,"$26,100.00 (USD)",French Polynesia,-17.53,-149.56,PYF,PF,PYF,PF
Qatar,QAT,Qatar,Doha,absolute monarchy,Qatari Rial (QAR),"4,473 Square Miles 11,586 Square Kilometers","Middle East, peninsula bordering the Persian Gulf and Saudi Arabia","Arabic (official), English commonly used as a second language",4.7%,"$145,000.00 (USD)",Qatar,25.28,51.53,QAT,QA,QAT,QA
Romania,ROU,Romania,Bucharest,semi-presidential republic,Leu (RON),"92,043 Square Miles 238,391 Square Kilometers","Southeastern Europe, bordering the Black Sea, between Bulgaria and Ukraine","Romanian (official), Hungarian, German",3.4%,"$20,600.00 (USD)",Romania,44.43,26.1,ROU,RO,ROU,RO
Russian Federation,RUS,Russia,Moscow,semi-presidential federation,Russian Ruble (RUR or RUB),"6,601,631 Square Miles 17,098,242 Square Kilometers","North Asia bordering the Arctic Ocean, extending from Europe (the portion west of the Urals) to the North Pacific Ocean","Russian (official), many minority languages",-3.9%,"$23,700.00 (USD)",Russian Federation,55.75,37.6,RUS,RU,RUS,RU
Rwanda,RWA,Rwanda,Kigali,presidential republic,Rwanda Franc (RWF),"10,169 Square Miles 26,338 Square Kilometers","Central Africa, east of Democratic Republic of the Congo","Kinyarwanda (official) universal Bantu vernacular, French (official), English (official), Kiswahili (Swahili) used in commercial centers",6.5%,"$1,800.00 (USD)",Rwanda,-1.95,30.05,RWA,RW,RWA,RW
Saudi Arabia,SAU,SaudiArabia,Riyadh,absolute monarchy,Saudi Riyal (SAR),"829,995 Square Miles 2,149,690 Square Kilometers","Middle East, bordering the Persian Gulf and the Red Sea, north of Yemen",Arabic,3.4%,"$54,600.00 (USD)",Saudi Arabia,24.65,46.7,SAU,SA,SAU,SA
Sudan,SDN,Sudan,Khartoum,presidential republic,Sudanese Point (SDG),"718,719 Square Miles 1,861,484 Square Kilometers","north-eastern Africa, bordering the Red Sea, between Egypt and Eritrea","Arabic (official), Nubian, Ta Bedawie, diverse dialects of Nilotic, Nilo-Hamitic, Sudanic languages, English",3.5%,"$4,500.00 (USD)",Sudan,15.6,32.53,SDN,SD,SDN,SD
Senegal,SEN,Senegal,Dakar,presidential republic,CFA Franc BCEAO (XOF),"75,954 Square Miles 196,722 Square Kilometers","Western Africa, bordering the North Atlantic Ocean, between Guinea-Bissau and Mauritania","French (official), Wolof, Pulaar, Jola, Mandinka",5.1%,"$2,500.00 (USD)",Senegal,14.73,-17.63,SEN,SN,SEN,SN
Singapore,SGP,Singapore,Singapore,parliamentary republic,Singapore Dollar (SGD),269 Square Miles 697 Square Kilometers,"Southeastern Asia, islands between Malaysia and Indonesia","Chinese (official), Malay (official and national), Tamil (official), English (official)",2.2%,"$85,700.00 (USD)",Singapore,1.28,103.85,SGP,SG,SGP,SG
Solomon Islands,SLB,SolomonIslands,Honiara,parliamentary democracy under a constitutional monarchy; a Commonwealth realm,Solomon Island Dollar (SBD),"11,157 Square Miles 28,896 Square Kilometers","Oceania, group of islands in the South Pacific Ocean, east of Papua New Guinea",Melanesian pidgin in much of the country is lingua franca; English is official but spoken by only 1%-2% of the population.,3.3%,"$2,000.00 (USD)",Solomon Islands,-9.43,159.95,SLB,SB,SLB,SB
Sierra Leone,SLE,SierraLeone,Freetown,presidential republic,Leone (SLL),"27,699 Square Miles 71,740 Square Kilometers","Western Africa, bordering the North Atlantic Ocean, between Guinea and Liberia","English (official, regular use limited to literate minority), Mende (principal vernacular in the south), Temne (principal vernacular in the north), Krio (English-based Creole, spoken by the descendants of freed Jamaican slaves who were settled in the Freetown area, a lingua franca and a first language for 10% of the population but understood by 95%)",-23.9%,"$1,600.00 (USD)",Sierra Leone,8.48,-13.23,SLE,SL,SLE,SL
El Salvador,SLV,ElSalvador,San Salvador,presidential republic,US Dollar (USD),"8,124 Square Miles 21,041 Square Kilometers","Central America, bordering the North Pacific Ocean, between Guatemala and Honduras","Spanish, Nahua (among some Amerindians)",2.4%,"$8,900.00 (USD)",El Salvador,13.7,-89.2,SLV,SV,SLV,SV
San Marino,SMR,SanMarino,City of San Marino,parliamentary republic,Euro (EUR),24 Square Miles 61 Square Kilometers,"Southern Europe, an enclave in central Italy",Italian,1%,"$62,100.00 (USD)",San Marino,43.94,12.45,SMR,SM,SMR,SM
Somalia,SOM,Somalia,Mogadishu,federal parliamentary republic,Somali Shilling (SOS),"246,199 Square Miles 637,657 Square Kilometers","Eastern Africa, bordering the Gulf of Aden and the Indian Ocean, east of Ethiopia","Somali (official), Arabic, Italian, English",2.6%,$400.00 (USD),Somalia,2.07,45.33,SOM,SO,SOM,SO
Serbia,SRB,Serbia,Belgrade,parliamentary republic,Serbia Dinar (CSD),"29,913 Square Miles 77,474 Square Kilometers","Southeastern Europe, between Macedonia and Hungary","Serbian 95%, Albanian 5%",0.5%,"$13,600.00 (USD)",Serbia,44.83,20.5,SRB,RS,SRB,RS
South Sudan,SSD,SouthSudan,Juba,presidential republic,South Sudanese Pound,"248,775 Square Miles 644,329 Square Kilometers","East-Central Africa; south of Sudan, north of Uganda and Kenya, west of Ethiopia","English (official), Arabic (includes Juba and Sudanese variants) (official), regional languages include Dinka, Nuer, Bari, Zande, Shilluk",-5.3%,"$2,000.00 (USD)",South Sudan,4.85,31.62,SSD,SS,SSD,SS
Sao Tome and Principe,STP,SaoTomeandPrincipe,São Tomé,semi-presidential republic,Dobra (STD),372 Square Miles 964 Square Kilometers,"Central Africa, islands in the Gulf of Guinea, just north of the Equator, west of Gabon",Portuguese (official),5%,"$3,400.00 (USD)",Sao Tome and Principe,0.34,6.73,STP,ST,STP,ST
Suriname,SUR,Suriname,Paramaribo,presidential republic,Suriname Guilder (SRG),"63,251 Square Miles 163,820 Square Kilometers","Northern South America, bordering the North Atlantic Ocean, between French Guiana and Guyana","Dutch (official), English (widely spoken), Sranang Tongo (Surinamese, sometimes called Taki-Taki, is native language of Creoles and much of the younger population and is lingua franca among others), Hindustani (a dialect of Hindi), Javanese",1.5%,"$16,700.00 (USD)",Suriname,5.83,-55.17,SUR,SR,SUR,SR
Slovak Republic,SVK,Slovakia,Bratislava,parliamentary republic,Euro (EUR),"18,932 Square Miles 49,035 Square Kilometers","Central Europe, south of Poland","Slovak (official), Hungarian",3.2%,"$29,500.00 (USD)",Slovak Republic,48.15,17.12,SVK,SK,SVK,SK
Slovenia,SVN,Slovenia,Ljubljana,parliamentary republic,Euro (EUR),"7,827 Square Miles 20,273 Square Kilometers","south Central Europe, Julian Alps between Austria and Croatia","Slovenian 92%, Serbo-Croatian 6.2%, other 1.8%",2.3%,"$30,900.00 (USD)",Slovenia,46.05,14.52,SVN,SI,SVN,SI
Sweden,SWE,Sweden,Stockholm,parliamentary constitutional monarchy,Swedish Krona (SEK),"173,859 Square Miles 450,295 Square Kilometers","Northern Europe, bordering the Baltic Sea, Gulf of Bothnia, Kattegat, and Skagerrak, between Finland and Norway",Swedish,2.8%,"$48,000.00 (USD)",Sweden,59.33,18.05,SWE,SE,SWE,SE
Eswatini,SWZ,Eswatini,Mbabane,Absolute monarchy,SZL,"6,704 Square Miles 17,364 Square Kilometers","Southern Africa, between Mozambique and South Africa","English (official, government business conducted in English), siSwati (official)",1.9%,"$9,800.00 (USD)",Eswatini,-26.32,31.13,SWZ,SZ,SWZ,SZ
Seychelles,SYC,Seychelles,Victoria,presidential republic,Seychellese Rupee (SCR),176 Square Miles 455 Square Kilometers,"archipelago in the Indian Ocean, northeast of Madagascar","English (official), French (official), Creole",3.5%,"$27,000.00 (USD)",Seychelles,-4.62,55.45,SYC,SC,SYC,SC
Syrian Arab Republic,SYR,Syria,Damascus,presidential republic; highly authoritarian regime,Syrian Pound (SYP),"71,498 Square Miles 185,180 Square Kilometers","Middle East, bordering the Mediterranean Sea, between Lebanon and Turkey","Arabic (official); Kurdish, Armenian, Aramaic, Circassian widely understood; French, English somewhat understood",-9.9%,"$5,100.00 (USD)",Syrian Arab Republic,33.5,36.3,SYR,SY,SYR,SY
Turks and Caicos Islands,TCA,TurksandCaicosIslands,Cockburn Town,parliamentary democracy,US Dollar (USD),366 Square Miles 948 Square Kilometers,"two island groups in the North Atlantic Ocean, southeast of The Bahamas, north of Haiti",English (official),11.2%,"$29,100.00 (USD)",Turks and Caicos Islands,21.46,-71.14,TCA,TC,TCA,TC
Chad,TCD,Chad,N'Djamena,presidential republic,Cooperation Financiere en Afrique Centrale francs (XAF),"495,752 Square Miles 1,284,000 Square Kilometers","Central Africa, south of Libya","French (official), Arabic (official), Sara (in the south), and more than 120 different languages and dialects",-1.1%,"$2,600.00 (USD)",Chad,12.1,15.03,TCD,TD,TCD,TD
Togo,TGO,Togo,Lomé,presidential republic,CFA Franc BCEAO (XOF),"21,925 Square Miles 56,785 Square Kilometers","Western Africa, bordering the Bight of Benin, between Benin and Ghana","French (official and the language of commerce), Ewe and Mina (the two major African languages in the south), Kabye (sometimes spelled Kabiye) and Dagomba (the two major African languages in the north)",5.4%,"$1,500.00 (USD)",Togo,6.14,1.21,TGO,TG,TGO,TG
Thailand,THA,Thailand,Bangkok,constitutional monarchy,Thai Baht (THB),"198,116 Square Miles 513,120 Square Kilometers","Southeastern Asia, bordering the Andaman Sea and the Gulf of Thailand, southeast of Burma","Thai, English, ethnic and regional dialects",2.5%,"$16,100.00 (USD)",Thailand,13.75,100.52,THA,TH,THA,TH
Tajikistan,TJK,Tajikistan,Dushanbe,presidential republic,Somoni (TJS)somon,"55,251 Square Miles 143,100 Square Kilometers","Central Asia, west of China, south of Kyrgyzstan","Tajik (official), Russian widely used in government and business",3%,"$2,800.00 (USD)",Tajikistan,38.55,68.77,TJK,TJ,TJK,TJ
Turkmenistan,TKM,Turkmenistan,Ashgabat,presidential republic; authoritarian,Manat (TMM),"188,455 Square Miles 488,100 Square Kilometers","Central Asia, bordering the Caspian Sea, between Iran and Kazakhstan","Turkmen 72%, Russian 12%, Uzbek 9%, other 7%",8.5%,"$15,600.00 (USD)",Turkmenistan,37.95,58.38,TKM,TM,TKM,TM
Timor-Leste,TLS,TimorLeste,Dili,semi-presidential republic,US dollar (USD),"5,743 Square Miles 14,874 Square Kilometers","Southeastern Asia, northwest of Australia in the Lesser Sunda Islands at the eastern end of the Indonesian archipelago; note - Timor-Leste includes the eastern half of the island of Timor, the Oecussi (Ambeno) region on the northwest portion of the island of Timor, and the islands of Pulau Atauro and Pulau Jaco","Tetum (official), Portuguese (official), Indonesian, English",4.3%,"$5,800.00 (USD)",Timor-Leste,-8.58,125.6,TLS,TL,TLS,TL
Tonga,TON,Tonga,Nuku'alofa,constitutional monarchy,Pa'anga (TOP),288 Square Miles 747 Square Kilometers,"Oceania, archipelago in the South Pacific Ocean, about two-thirds of the way from Hawaii to New Zealand","Tongan, English",2.7%,"$5,100.00 (USD)",Tonga,-21.13,-175.2,TON,TO,TON,TO
Trinidad and Tobago,TTO,TrinidadandTobago,Port of Spain,parliamentary republic,Trinidad and Tobago Dollar (TTD),"1,980 Square Miles 5,128 Square Kilometers","Caribbean, islands between the Caribbean Sea and the North Atlantic Ocean, northeast of Venezuela","English (official), Hindi, French, Spanish, Chinese",1%,"$32,800.00 (USD)",Trinidad and Tobago,10.65,-61.52,TTO,TT,TTO,TT
Tunisia,TUN,Tunisia,Tunis,parliamentary republic,Tunisian Dinar (TND),"63,170 Square Miles 163,610 Square Kilometers","Northern Africa, bordering the Mediterranean Sea, between Algeria and Libya","Arabic (official and one of the languages of commerce), French (commerce)",1%,"$11,600.00 (USD)",Tunisia,36.8,10.18,TUN,TN,TUN,TN
Turkiye,TUR,Turkey,Ankara,presidential republic,Yenmi Turk Lira (TRY),"302,533 Square Miles 783,562 Square Kilometers","Southeastern Europe and Southwestern Asia (that portion of Turkey west of the Bosporus is geographically part of Europe), bordering the Black Sea, between Bulgaria and Georgia, and bordering the Aegean Sea and the Mediterranean Sea, between Greece and Syria","Turkish (official), Kurdish, Arabic, Armenian, Greek",3%,"$20,500.00 (USD)",Turkiye,39.93,32.87,TUR,TR,TUR,TR
Tuvalu,TUV,Tuvalu,Funafuti,parliamentary democracy under a constitutional monarchy; a Commonwealth realm,Austrlian Dollar (AUD),10 Square Miles 26 Square Kilometers,"Oceania, island group consisting of nine coral atolls in the South Pacific Ocean, about one-half of the way from Hawaii to Australia","Tuvaluan, English, Samoan, Kiribati (on the island of Nui)",3.5%,"$3,400.00 (USD)",Tuvalu,-8.52,179.22,TUV,TV,TUV,TV
Tanzania,TZA,Tanzania,Dodoma,presidential republic,Tanzanian Shilling (TZS),"365,753 Square Miles 947,300 Square Kilometers","Eastern Africa, bordering the Indian Ocean, between Kenya and Mozambique","Kiswahili or Swahili (official), Kiunguju, English (official, Arabic, many local languages",6.9%,"$3,000.00 (USD)",Tanzania,-6.16,35.75,TZA,TZ,TZA,TZ
Uganda,UGA,Uganda,Kampala,presidential republic,Uganda Shilling (UGX),"93,065 Square Miles 241,038 Square Kilometers","East-Central Africa, west of Kenya, east of the Democratic Republic of the Congo","English (official language, Ganda or Luganda , other Niger-Congo languages, Nilo-Saharan languages, Swahili, Arabic)",5.2%,"$2,100.00 (USD)",Uganda,0.32,32.55,UGA,UG,UGA,UG
Ukraine,UKR,Ukraine,Kyiv,semi-presidential republic,Ukrainian Hryvnia (UAH),"233,031 Square Miles 603,550 Square Kilometers","Eastern Europe, bordering the Black Sea, between Poland, Romania, and Moldova in the west and Russia in the east","Ukrainian, Russian, Romanian, Polish, Hungarian",-11%,"$8,000.00 (USD)",Ukraine,50.43,30.52,UKR,UA,UKR,UA
Uruguay,URY,Uruguay,Montevideo,presidential republic,Uruguayan Peso (UYU),"68,037 Square Miles 176,215 Square Kilometers","Southern South America, bordering the South Atlantic Ocean, between Argentina and Brazil","Spanish, Portunol, or Brazilero (Portuguese-Spanish mix on the Brazilian frontier)",2.8%,"$21,800.00 (USD)",Uruguay,-34.85,-56.17,URY,UY,URY,UY
United States,USA,UnitedStatesofAmerica,"Washington, D.C.",constitutional federal republic,US Dollar (USD),"3,794,079 Square Miles 9,826,675 Square Kilometers","North America, bordering both the North Atlantic Ocean and the North Pacific Ocean, between Canada and Mexico","English 82.1%, Spanish 10.7%, other Indo-European 3.8%, Asian and Pacific islands 2.7%, other 0.7%",2.6%,"$56,300.00 (USD)",United States,38.89,-77.05,USA,US,USA,US
Uzbekistan,UZB,Uzbekistan,Tashkent,presidential republic; highly authoritarian,Uzbekistan Sum (UZS),"172,741 Square Miles 447,400 Square Kilometers","Central Asia, north of Turkmenistan, south of Kazakhstan","Uzbek 74.3%, Russian 14.2%, Tajik 4.4%, other 7.1%",6.8%,"$6,100.00 (USD)",Uzbekistan,41.32,69.25,UZB,UZ,UZB,UZ
St. Vincent and the Grenadines,VCT,SaintVincentandtheGrenadines,Kingstown,parliamentary democracy under a constitutional monarchy; a Commonwealth realm,East Caribbean Dollar (XCD),150 Square Miles 389 Square Kilometers,"Caribbean, islands between the Caribbean Sea and North Atlantic Ocean, north of Trinidad and Tobago","English, French patois",2.1%,"$11,000.00 (USD)",St. Vincent and the Grenadines,13.13,-61.22,VCT,VC,VCT,VC
"Venezuela, RB",VEN,Venezuela,Caracas,federal presidential republic,Venezuelan Bolivar (VEF),"352,143 Square Miles 912,050 Square Kilometers","Northern South America, bordering the Caribbean Sea and the North Atlantic Ocean, between Colombia and Guyana","Spanish (official), numerous indigenous dialects",-10%,"$16,100.00 (USD)","Venezuela, RB",10.48,-66.87,VEN,VE,VEN,VE
British Virgin Islands,VGB,BritishVirginIslands,Road Town,overseas Territory of the UK with limited self-government; parliamentary democracy,US Dollar (USD),58 Square Miles 151 Square Kilometers,"The Caribbean, between the Caribbean Sea and the North Atlantic Ocean, east of Puerto Rico",English (official),1.3%,"$42,300.00 (USD)",British Virgin Islands,18.42,-64.62,VGB,VG,VGB,VG
Virgin Islands (U.S.),VIR,VirginIslands,Charlotte Amalie,"unincorporated organized territory of the US with local self-government; republican form of territorial government with separate executive, legislative, and judicial branches",US Dollar (USD),"737 Square Miles 1,910 Square Kilometers","Caribbean, islands between the Caribbean Sea and the North Atlantic Ocean, east of Puerto Rico","English (official), Spanish, Creole",-5.4%,"$36,100.00 (USD)",Virgin Islands (U.S.),18.35,-64.93,VIR,VI,VIR,VI
Viet Nam,VNM,VietNam,Hanoi,communist state,Vietnamese Dong (VND),"127,880 Square Miles 331,210 Square Kilometers","Southeastern Asia, bordering the Gulf of Thailand, Gulf of Tonkin, and South China Sea, as well as China, Laos, and Cambodia","Vietnamese (official), English (as a second language), some French, Chinese, and Khmer; mountain area languages (Mon-Khmer and Malayo-Polynesian)",6.5%,"$6,100.00 (USD)",Viet Nam,21.03,105.85,VNM,VN,VNM,VN
Vanuatu,VUT,Vanuatu,Port Vila,parliamentary republic,Vanuatu Vatu (VUV),"4,706 Square Miles 12,189 Square Kilometers","Oceania, group of islands in the South Pacific Ocean, about three-quarters of the way from Hawaii to Australia","three official languages: English, French, pidgin (known as Bislama or Bichelama), plus more than 100 local languages",-2%,"$2,600.00 (USD)",Vanuatu,-17.73,168.32,VUT,VU,VUT,VU
Samoa,WSM,Samoa,Apia,parliamentary republic,Tala (WST),"1,093 Square Miles 2,831 Square Kilometers","Oceania, group of islands in the South Pacific Ocean, about half way between Hawaii and New Zealand","Samoan (Polynesian), English",2.6%,"$5,400.00 (USD)",Samoa,-13.82,-171.77,WSM,WS,WSM,WS
"Yemen, Rep.",YEM,Yemen,Sana'a,in transition,Yemeni Rial (YER),"203,848 Square Miles 527,968 Square Kilometers","Middle East, bordering the Arabian Sea, Gulf of Aden, and Red Sea, between Oman and Saudi Arabia",Arabic,-28.1%,"$2,800.00 (USD)","Yemen, Rep.",15.37,44.19,YEM,YE,YEM,YE
South Africa,ZAF,SouthAfrica,Pretoria,parliamentary republic,Rand (ZAR),"470,691 Square Miles 1,219,090 Square Kilometers","Southern Africa, at the southern tip of the continent of Africa","11 official languages, including Afrikaans, English, Ndebele, Pedi, Sotho, Swazi, Tsonga, Tswana, Venda, Xhosa, Zulu",1.4%,"$13,400.00 (USD)",South Africa,-25.7,28.22,ZAF,ZA,ZAF,ZA
Zambia,ZMB,Zambia,Lusaka,presidential republic,Zambian Kwacha (ZMW),"290,586 Square Miles 752,618 Square Kilometers","Southern Africa, east of Angola, south of the Democratic Republic of the Congo","English (official), - Bemba, Kaonda, Lozi, Lunda, Luvale, Nyanja, Tonga, and about 70 other indigenous languages.",4.3%,"$4,300.00 (USD)",Zambia,-15.42,28.28,ZMB,ZM,ZMB,ZM
Zimbabwe,ZWE,Zimbabwe,Harare,presidential republic,Zimbabwe Dollar (ZWD),"150,871 Square Miles 390,757 Square Kilometers","Southern Africa, between South Africa and Zambia","English (official), Shona, Sindebele",1.4%,"$2,100.00 (USD)",Zimbabwe,-17.82,31.03,ZWE,ZW,ZWE,ZW
